[
    {
        "Main Port Name": "Liverpool (Brooklyn)",
        "Latitude": 44.033333,
        "Longitude": -64.65,
        "Tidal Range (m)": 2.0,
        "Channel Depth (m)": 7.9,
        "Anchorage Depth (m)": 12.5,
        "Cargo Pier Depth (m)": 7.9,
        "Oil Terminal Depth (m)": 0.0,
        "Harbor Size": "Small",
        "Harbor Type": "Coastal (Natural)"
    },
    {
        "Main Port Name": "Halifax",
        "Latitude": 44.65,
        "Longitude": -63.583333,
        "Tidal Range (m)": 2.0,
        "Channel Depth (m)": 20.1,
        "Anchorage Depth (m)": 12.5,
        "Cargo Pier Depth (m)": 15.5,
        "Oil Terminal Depth (m)": 14.0,
        "Harbor Size": "Large",
        "Harbor Type": "Coastal (Natural)"
    },
    {
        "Main Port Name": "Goldsboro",
        "Latitude": 45.183333,
        "Longitude": -61.65,
        "Tidal Range (m)": 4.0,
        "Channel Depth (m)": 6.4,
        "Anchorage Depth (m)": 6.4,
        "Cargo Pier Depth (m)": 4.9,
        "Oil Terminal Depth (m)": 0.0,
        "Harbor Size": "Very Small",
        "Harbor Type": "Coastal (Natural)"
    },
    {
        "Main Port Name": "North Sydney",
        "Latitude": 46.216667,
        "Longitude": -60.25,
        "Tidal Range (m)": 3.0,
        "Channel Depth (m)": 11.0,
        "Anchorage Depth (m)": 11.0,
        "Cargo Pier Depth (m)": 9.4,
        "Oil Terminal Depth (m)": 0.0,
        "Harbor Size": "Small",
        "Harbor Type": "Coastal (Natural)"
    },
    {
        "Main Port Name": "Louisbourg",
        "Latitude": 45.916667,
        "Longitude": -59.966667,
        "Tidal Range (m)": 2.0,
        "Channel Depth (m)": 7.9,
        "Anchorage Depth (m)": 9.4,
        "Cargo Pier Depth (m)": 6.4,
        "Oil Terminal Depth (m)": 0.0,
        "Harbor Size": "Very Small",
        "Harbor Type": "Coastal (Natural)"
    },
    {
        "Main Port Name": "Musquodoboit Harbour",
        "Latitude": 44.783333,
        "Longitude": -63.15,
        "Tidal Range (m)": 4.0,
        "Channel Depth (m)": 1.8,
        "Anchorage Depth (m)": 0.0,
        "Cargo Pier Depth (m)": 4.9,
        "Oil Terminal Depth (m)": 0.0,
        "Harbor Size": "Very Small",
        "Harbor Type": "Coastal (Natural)"
    },
    {
        "Main Port Name": "Windsor",
        "Latitude": 45.0,
        "Longitude": -64.15,
        "Tidal Range (m)": 0.0,
        "Channel Depth (m)": 6.4,
        "Anchorage Depth (m)": 0.0,
        "Cargo Pier Depth (m)": 6.4,
        "Oil Terminal Depth (m)": 0.0,
        "Harbor Size": "Very Small",
        "Harbor Type": "River (Natural)"
    },
    {
        "Main Port Name": "Stormont",
        "Latitude": 45.216667,
        "Longitude": -61.716667,
        "Tidal Range (m)": 2.0,
        "Channel Depth (m)": 17.1,
        "Anchorage Depth (m)": 7.9,
        "Cargo Pier Depth (m)": 4.9,
        "Oil Terminal Depth (m)": 0.0,
        "Harbor Size": "Very Small",
        "Harbor Type": "Coastal (Natural)"
    },
    {
        "Main Port Name": "Port Hastings",
        "Latitude": 45.65,
        "Longitude": -61.4,
        "Tidal Range (m)": 3.0,
        "Channel Depth (m)": 12.5,
        "Anchorage Depth (m)": 17.1,
        "Cargo Pier Depth (m)": 7.9,
        "Oil Terminal Depth (m)": 7.9,
        "Harbor Size": "Very Small",
        "Harbor Type": "Coastal (Natural)"
    },
    {
        "Main Port Name": "Sheet Harbor",
        "Latitude": 44.9,
        "Longitude": -62.5,
        "Tidal Range (m)": 0.0,
        "Channel Depth (m)": 0.0,
        "Anchorage Depth (m)": 0.0,
        "Cargo Pier Depth (m)": 0.0,
        "Oil Terminal Depth (m)": 0.0,
        "Harbor Size": "Very Small",
        "Harbor Type": "Coastal (Natural)"
    },
    {
        "Main Port Name": "Dingwall Harbor",
        "Latitude": 46.9,
        "Longitude": -60.46666667,
        "Tidal Range (m)": 0.0,
        "Channel Depth (m)": 0.0,
        "Anchorage Depth (m)": 0.0,
        "Cargo Pier Depth (m)": 0.0,
        "Oil Terminal Depth (m)": 0.0,
        "Harbor Size": " ",
        "Harbor Type": " "
    },
    {
        "Main Port Name": "Lockeport Harbor",
        "Latitude": 43.7,
        "Longitude": -65.11666667,
        "Tidal Range (m)": 0.0,
        "Channel Depth (m)": 0.0,
        "Anchorage Depth (m)": 0.0,
        "Cargo Pier Depth (m)": 0.0,
        "Oil Terminal Depth (m)": 0.0,
        "Harbor Size": " ",
        "Harbor Type": " "
    },
    {
        "Main Port Name": "Baddeck Harbour",
        "Latitude": 46.1,
        "Longitude": -60.75,
        "Tidal Range (m)": 0.0,
        "Channel Depth (m)": 0.0,
        "Anchorage Depth (m)": 0.0,
        "Cargo Pier Depth (m)": 0.0,
        "Oil Terminal Depth (m)": 0.0,
        "Harbor Size": " ",
        "Harbor Type": " "
    },
    {
        "Main Port Name": "Shelburne Harbour",
        "Latitude": 43.75,
        "Longitude": -65.31666667,
        "Tidal Range (m)": 0.0,
        "Channel Depth (m)": 0.0,
        "Anchorage Depth (m)": 0.0,
        "Cargo Pier Depth (m)": 0.0,
        "Oil Terminal Depth (m)": 0.0,
        "Harbor Size": " ",
        "Harbor Type": " "
    },
    {
        "Main Port Name": "Little Bras D Or",
        "Latitude": 46.25,
        "Longitude": -60.3,
        "Tidal Range (m)": 3.0,
        "Channel Depth (m)": 3.4,
        "Anchorage Depth (m)": 6.4,
        "Cargo Pier Depth (m)": 3.4,
        "Oil Terminal Depth (m)": 0.0,
        "Harbor Size": "Very Small",
        "Harbor Type": "Coastal (Natural)"
    },
    {
        "Main Port Name": "Grand Narrows",
        "Latitude": 45.95,
        "Longitude": -60.783333,
        "Tidal Range (m)": 0.0,
        "Channel Depth (m)": 7.9,
        "Anchorage Depth (m)": 12.5,
        "Cargo Pier Depth (m)": 3.4,
        "Oil Terminal Depth (m)": 0.0,
        "Harbor Size": "Very Small",
        "Harbor Type": "Coastal (Natural)"
    },
    {
        "Main Port Name": "Digby",
        "Latitude": 44.616667,
        "Longitude": -65.766667,
        "Tidal Range (m)": 7.0,
        "Channel Depth (m)": 11.0,
        "Anchorage Depth (m)": 11.0,
        "Cargo Pier Depth (m)": 21.6,
        "Oil Terminal Depth (m)": 0.0,
        "Harbor Size": "Small",
        "Harbor Type": "Coastal (Natural)"
    },
    {
        "Main Port Name": "Sonora",
        "Latitude": 45.066667,
        "Longitude": -61.916667,
        "Tidal Range (m)": 4.0,
        "Channel Depth (m)": 3.4,
        "Anchorage Depth (m)": 3.4,
        "Cargo Pier Depth (m)": 3.4,
        "Oil Terminal Depth (m)": 0.0,
        "Harbor Size": "Very Small",
        "Harbor Type": "River (Natural)"
    },
    {
        "Main Port Name": "Port Hawkesbury",
        "Latitude": 45.616667,
        "Longitude": -61.366667,
        "Tidal Range (m)": 2.0,
        "Channel Depth (m)": 4.9,
        "Anchorage Depth (m)": 12.5,
        "Cargo Pier Depth (m)": 9.4,
        "Oil Terminal Depth (m)": 23.2,
        "Harbor Size": "Very Small",
        "Harbor Type": "Coastal (Natural)"
    },
    {
        "Main Port Name": "Whycocomagh",
        "Latitude": 45.966667,
        "Longitude": -61.133333,
        "Tidal Range (m)": 0.0,
        "Channel Depth (m)": 3.4,
        "Anchorage Depth (m)": 6.4,
        "Cargo Pier Depth (m)": 4.9,
        "Oil Terminal Depth (m)": 0.0,
        "Harbor Size": "Very Small",
        "Harbor Type": "Coastal (Natural)"
    },
    {
        "Main Port Name": "Sydney",
        "Latitude": 46.15,
        "Longitude": -60.2,
        "Tidal Range (m)": 1.0,
        "Channel Depth (m)": 11.0,
        "Anchorage Depth (m)": 11.0,
        "Cargo Pier Depth (m)": 11.0,
        "Oil Terminal Depth (m)": 11.0,
        "Harbor Size": "Medium",
        "Harbor Type": "Coastal (Natural)"
    },
    {
        "Main Port Name": "St Anns Harbour",
        "Latitude": 46.28333333,
        "Longitude": -60.55,
        "Tidal Range (m)": 0.0,
        "Channel Depth (m)": 0.0,
        "Anchorage Depth (m)": 0.0,
        "Cargo Pier Depth (m)": 0.0,
        "Oil Terminal Depth (m)": 0.0,
        "Harbor Size": " ",
        "Harbor Type": " "
    },
    {
        "Main Port Name": "Port Hood",
        "Latitude": 46.0,
        "Longitude": -61.55,
        "Tidal Range (m)": 0.0,
        "Channel Depth (m)": 0.0,
        "Anchorage Depth (m)": 0.0,
        "Cargo Pier Depth (m)": 0.0,
        "Oil Terminal Depth (m)": 0.0,
        "Harbor Size": " ",
        "Harbor Type": " "
    },
    {
        "Main Port Name": "Riverport",
        "Latitude": 44.3,
        "Longitude": -64.33333333,
        "Tidal Range (m)": 0.0,
        "Channel Depth (m)": 0.0,
        "Anchorage Depth (m)": 0.0,
        "Cargo Pier Depth (m)": 0.0,
        "Oil Terminal Depth (m)": 0.0,
        "Harbor Size": " ",
        "Harbor Type": " "
    },
    {
        "Main Port Name": "Lunenburg Harbour",
        "Latitude": 44.36666667,
        "Longitude": -64.3,
        "Tidal Range (m)": 0.0,
        "Channel Depth (m)": 0.0,
        "Anchorage Depth (m)": 0.0,
        "Cargo Pier Depth (m)": 0.0,
        "Oil Terminal Depth (m)": 0.0,
        "Harbor Size": " ",
        "Harbor Type": " "
    },
    {
        "Main Port Name": "Crawley Creek",
        "Latitude": 46.15,
        "Longitude": -60.22333333,
        "Tidal Range (m)": 0.0,
        "Channel Depth (m)": 0.0,
        "Anchorage Depth (m)": 0.0,
        "Cargo Pier Depth (m)": 0.0,
        "Oil Terminal Depth (m)": 0.0,
        "Harbor Size": " ",
        "Harbor Type": " "
    },
    {
        "Main Port Name": "Yarmouth Harbor (Canada)",
        "Latitude": 43.83333333,
        "Longitude": -66.11666667,
        "Tidal Range (m)": 0.0,
        "Channel Depth (m)": 0.0,
        "Anchorage Depth (m)": 0.0,
        "Cargo Pier Depth (m)": 0.0,
        "Oil Terminal Depth (m)": 0.0,
        "Harbor Size": " ",
        "Harbor Type": " "
    },
    {
        "Main Port Name": "Arichat Harbour",
        "Latitude": 45.51666667,
        "Longitude": -61.01666667,
        "Tidal Range (m)": 0.0,
        "Channel Depth (m)": 0.0,
        "Anchorage Depth (m)": 0.0,
        "Cargo Pier Depth (m)": 0.0,
        "Oil Terminal Depth (m)": 0.0,
        "Harbor Size": " ",
        "Harbor Type": " "
    }
]